var parkoviste = {"type":"FeatureCollection","features":[{"type":"Feature","properties":{"name":"Garáže PřF, 17. listopadu","sym":null},"geometry":{"type":"Point","coordinates":[17.2624759376,49.5913624763,0]}},{"type":"Feature","properties":{"name":"parkování na ulici, tř. 17 listopadu","sym":null},"geometry":{"type":"Point","coordinates":[17.2628997266,49.5924896747,0]}},{"type":"Feature","properties":{"name":"parkoviště u Teoretických ústavů LF","sym":null},"geometry":{"type":"Point","coordinates":[17.2370968759,49.5870897174,0]}},{"type":"Feature","properties":{"name":"Parkování u VŠ kolejí Neředín","sym":null},"geometry":{"type":"Point","coordinates":[17.2140459716,49.5943263173,0]}},{"type":"Feature","properties":{"name":"Parkování na Biskupském náměstí","sym":null},"geometry":{"type":"Point","coordinates":[17.2601692379,49.5958283544,0]}},{"type":"Feature","properties":{"name":"Parkování na ulici Křížkovského","sym":null},"geometry":{"type":"Point","coordinates":[17.2596918046,49.5950914174,0]}},{"type":"Feature","properties":{"name":"Parkování u VŠ kolejí, ulice Šmeralova","sym":null},"geometry":{"type":"Point","coordinates":[17.2651474178,49.5925077796,0]}},{"type":"Feature","properties":{"name":"parkoviště na Palachově náměstí","sym":null},"geometry":{"type":"Point","coordinates":[17.250572294,49.5904317498,0]}},{"type":"Feature","properties":{"name":"parkovací dům Hanáckého pluku","sym":null},"geometry":{"type":"Point","coordinates":[17.2574763,49.5973793417,0]}},{"type":"Feature","properties":{"name":"Parkoviště u Sportovní haly UP","sym":null},"geometry":{"type":"Point","coordinates":[17.2498695552,49.601996094,0]}},{"type":"Feature","properties":{"name":"Parkování u výstaviště Flora","sym":null},"geometry":{"type":"Point","coordinates":[17.2442691028,49.5875557512,0]}}]}